[
  {
    "id": "teide",
    "islandId": "tenerife",
    "name": "Teide",
    "coordinates": [28.2724, -16.6425],
    "altitude": 3715,
    "type": "summit",
    "skyScore": 9.9,
    "access": "moderate",
    "bestFor": ["deep sky", "milky way", "planetary observing"],
    "description": "High altitude reference point with exceptionally dark skies."
  },
  {
    "id": "chipeque",
    "islandId": "tenerife",
    "name": "Chipeque",
    "coordinates": [28.3407, -16.4633],
    "altitude": 2120,
    "type": "viewpoint",
    "skyScore": 9.2,
    "access": "easy",
    "bestFor": ["night photography", "constellations"],
    "description": "One of the most popular sky viewpoints on Tenerife."
  },
  {
    "id": "izana",
    "islandId": "tenerife",
    "name": "Izaña",
    "coordinates": [28.3035, -16.5157],
    "altitude": 2390,
    "type": "observatory",
    "skyScore": 9.6,
    "access": "moderate",
    "bestFor": ["research-grade observing", "guided visits"],
    "description": "Scientific observation area close to the Teide massif."
  },
  {
    "id": "roque",
    "islandId": "la-palma",
    "name": "Roque de los Muchachos",
    "coordinates": [28.7583, -17.8928],
    "altitude": 2426,
    "type": "observatory",
    "skyScore": 10,
    "access": "moderate",
    "bestFor": ["deep sky", "research", "guided astronomy"],
    "description": "International reference for dark-sky astronomy."
  },
  {
    "id": "garafia",
    "islandId": "la-palma",
    "name": "Garafia",
    "coordinates": [28.7982, -17.9364],
    "altitude": 1100,
    "type": "viewpoint",
    "skyScore": 9.4,
    "access": "easy",
    "bestFor": ["milky way", "panoramic sky views"],
    "description": "Quiet northern area with excellent night visibility."
  },
  {
    "id": "los-andenes",
    "islandId": "la-palma",
    "name": "Los Andenes",
    "coordinates": [28.7132, -17.8218],
    "altitude": 1900,
    "type": "trail-viewpoint",
    "skyScore": 9.1,
    "access": "moderate",
    "bestFor": ["stargazing routes", "astro-trekking"],
    "description": "Ideal for combining hiking and astronomy."
  },
  {
    "id": "pico-de-las-nieves",
    "islandId": "gran-canaria",
    "name": "Pico de las Nieves",
    "coordinates": [27.9819, -15.5682],
    "altitude": 1949,
    "type": "summit",
    "skyScore": 8.8,
    "access": "easy",
    "bestFor": ["sunset to night transition", "family observing"],
    "description": "A central high point with a broad horizon."
  },
  {
    "id": "fataga",
    "islandId": "gran-canaria",
    "name": "Fataga",
    "coordinates": [27.8698, -15.5785],
    "altitude": 640,
    "type": "village-viewpoint",
    "skyScore": 8.4,
    "access": "easy",
    "bestFor": ["astrotourism", "nocturnal scenic drives"],
    "description": "Good balance between access and sky quality."
  },
  {
    "id": "tamadaba",
    "islandId": "gran-canaria",
    "name": "Tamadaba",
    "coordinates": [28.0721, -15.6512],
    "altitude": 1200,
    "type": "protected-area",
    "skyScore": 8.9,
    "access": "moderate",
    "bestFor": ["nature routes", "dark-sky walks"],
    "description": "Protected landscape with strong sky viewing potential."
  },
  {
    "id": "haria",
    "islandId": "lanzarote",
    "name": "Haria",
    "coordinates": [29.1468, -13.5023],
    "altitude": 267,
    "type": "village-viewpoint",
    "skyScore": 8.7,
    "access": "easy",
    "bestFor": ["calm night sessions", "landscape astronomy"],
    "description": "Northern Lanzarote is very good for clear horizons."
  },
  {
    "id": "famara",
    "islandId": "lanzarote",
    "name": "Famara",
    "coordinates": [29.1233, -13.5572],
    "altitude": 18,
    "type": "coastal-viewpoint",
    "skyScore": 8.1,
    "access": "easy",
    "bestFor": ["meteor showers", "wide sky composition"],
    "description": "Open coastal sky with a strong visual horizon."
  },
  {
    "id": "timanfaya",
    "islandId": "lanzarote",
    "name": "Timanfaya",
    "coordinates": [29.0113, -13.7877],
    "altitude": 510,
    "type": "volcanic-area",
    "skyScore": 8.5,
    "access": "moderate",
    "bestFor": ["astro tours", "volcanic night scenes"],
    "description": "Volcanic terrain creates a strong immersive night experience."
  },
  {
    "id": "caleta-de-sebo",
    "islandId": "la-graciosa",
    "name": "Caleta de Sebo",
    "coordinates": [29.2226, -13.5139],
    "altitude": 10,
    "type": "village-viewpoint",
    "skyScore": 8.8,
    "access": "easy",
    "bestFor": ["coastal observing", "stargazing walks"],
    "description": "Main settlement on the island with a very open night horizon."
  },
  {
    "id": "playa-de-las-conchas",
    "islandId": "la-graciosa",
    "name": "Playa de las Conchas",
    "coordinates": [29.2554, -13.5249],
    "altitude": 5,
    "type": "coastal-viewpoint",
    "skyScore": 9.0,
    "access": "easy",
    "bestFor": ["milky way", "night photography"],
    "description": "Remote beach with minimal artificial light and a huge open sky."
  },
  {
    "id": "montana-bermeja",
    "islandId": "la-graciosa",
    "name": "Montana Bermeja",
    "coordinates": [29.2404, -13.5007],
    "altitude": 266,
    "type": "hill-viewpoint",
    "skyScore": 9.1,
    "access": "moderate",
    "bestFor": ["sky panorama", "wide horizon views"],
    "description": "A small elevated point that works well as a quiet observing stop."
  },
  {
    "id": "jandia",
    "islandId": "fuerteventura",
    "name": "Jandia",
    "coordinates": [28.0552, -14.3162],
    "altitude": 480,
    "type": "coastal-range",
    "skyScore": 8.6,
    "access": "moderate",
    "bestFor": ["horizon observing", "astro photography"],
    "description": "Spacious landscape with excellent openness."
  },
  {
    "id": "betancuria",
    "islandId": "fuerteventura",
    "name": "Betancuria",
    "coordinates": [28.4268, -14.0559],
    "altitude": 370,
    "type": "valley-viewpoint",
    "skyScore": 8.3,
    "access": "easy",
    "bestFor": ["family visits", "gentle night outings"],
    "description": "Historic interior area with a calm night atmosphere."
  },
  {
    "id": "corralejo",
    "islandId": "fuerteventura",
    "name": "Corralejo",
    "coordinates": [28.7411, -13.8655],
    "altitude": 15,
    "type": "coastal-viewpoint",
    "skyScore": 8.0,
    "access": "easy",
    "bestFor": ["easy access", "night walks"],
    "description": "Convenient coastal observing area for short sessions."
  },
  {
    "id": "valle-gran-rey",
    "islandId": "la-gomera",
    "name": "Valle Gran Rey",
    "coordinates": [28.0926, -17.3336],
    "altitude": 210,
    "type": "valley-viewpoint",
    "skyScore": 8.4,
    "access": "easy",
    "bestFor": ["quiet observation", "stargazing routes"],
    "description": "A calm valley setting ideal for slow travel experiences."
  },
  {
    "id": "garajonay",
    "islandId": "la-gomera",
    "name": "Garajonay",
    "coordinates": [28.1204, -17.2347],
    "altitude": 1487,
    "type": "protected-forest",
    "skyScore": 8.2,
    "access": "moderate",
    "bestFor": ["educational routes", "night nature walks"],
    "description": "Forest landscapes with dark-sky potential away from the coast."
  },
  {
    "id": "chipude",
    "islandId": "la-gomera",
    "name": "Chipude",
    "coordinates": [28.1016, -17.2824],
    "altitude": 1100,
    "type": "village-viewpoint",
    "skyScore": 8.1,
    "access": "easy",
    "bestFor": ["short excursions", "star interpretation"],
    "description": "Accessible point for a simple stargazing outing."
  },
  {
    "id": "sabinar",
    "islandId": "el-hierro",
    "name": "El Sabinar",
    "coordinates": [27.7164, -18.0007],
    "altitude": 820,
    "type": "landscape-viewpoint",
    "skyScore": 9.0,
    "access": "moderate",
    "bestFor": ["night panoramas", "wind-sculpted scenery"],
    "description": "Quiet western area with excellent sky darkness."
  },
  {
    "id": "malpaso",
    "islandId": "el-hierro",
    "name": "Malpaso",
    "coordinates": [27.7223, -18.0216],
    "altitude": 1501,
    "type": "summit",
    "skyScore": 9.2,
    "access": "moderate",
    "bestFor": ["high altitude observing", "deep sky"],
    "description": "The highest point on the island with very strong conditions."
  },
  {
    "id": "orchilla",
    "islandId": "el-hierro",
    "name": "Orchilla",
    "coordinates": [27.7011, -18.1166],
    "altitude": 50,
    "type": "coastal-viewpoint",
    "skyScore": 8.7,
    "access": "easy",
    "bestFor": ["coastal sky", "night photography"],
    "description": "Remote western viewpoint with low light intrusion."
  }
]
